{"name":"Dekalb_PR2","type":"FeatureCollection"
,"features":[
{"type":"Feature","geometry":{"type":"Point","coordinates":[-84.29079776,33.86765186]},"properties":{"Name":"Atlanta Veterinary Skin & Allergy Clinic, PC","Physical_A":"2803 Shallowford Rd NE, Atlanta, GA 30341","Telephone":"(770) 936-8922","Website":"http://www.atlantaskinvet.com","x_longitud":-84.290798,"y_latitude":33.867652,"Resources":"Veterinarian"}}
,{"type":"Feature","geometry":{"type":"Point","coordinates":[-84.26513171,33.81919891]},"properties":{"Name":"North DeKalb Veterinary Clinic","Physical_A":"2485 Lawrenceville Hwy, Decatur, GA 30033","Telephone":"(404) 321-7756","Website":"www.northdekalbvet.com","x_longitud":-84.265132,"y_latitude":33.819199,"Resources":"Veterinarian"}}
,{"type":"Feature","geometry":{"type":"Point","coordinates":[-84.34623099,33.74166331]},"properties":{"Name":"East Atlanta Animal Clinic","Physical_A":"461 Flat Shoals Ave SE, Atlanta, GA 30316","Telephone":"(404) 523-8765","Website":"eastatlantaanimalclinic.com","x_longitud":-84.346231,"y_latitude":33.741663,"Resources":"Veterinarian"}}
,{"type":"Feature","geometry":{"type":"Point","coordinates":[-84.19207847,33.75923346]},"properties":{"Name":"Hidden Hills Animal Hospital","Physical_A":"4899 Redan Rd, Stone Mountain, GA 30088","Telephone":"(404) 296-3400","Website":"www.hiddenhillsvet.com","x_longitud":-84.192078,"y_latitude":33.759233,"Resources":"Veterinarian"}}
,{"type":"Feature","geometry":{"type":"Point","coordinates":[-84.30670731,33.78816724]},"properties":{"Name":"Clairmont Animal Hospital","Physical_A":"1226 Clairmont Rd, Decatur, GA 30030","Telephone":"(404) 633-6163","Website":"www.clairmontanimalhospital.com","x_longitud":-84.306707,"y_latitude":33.788167,"Resources":"Veterinarian"}}
,{"type":"Feature","geometry":{"type":"Point","coordinates":[-84.3383588,33.80469978]},"properties":{"Name":"Briarcliff Animal Clinic\r\n","Physical_A":"1850 Johnson Rd NE, Atlanta, GA 30306","Telephone":"(404) 835-1216","Website":"briarcliffanimal.com","x_longitud":-84.338359,"y_latitude":33.8047,"Resources":"Veterinarian"}}
,{"type":"Feature","geometry":{"type":"Point","coordinates":[-84.28407059,33.77365277]},"properties":{"Name":"Dearborn Animal Hospital","Physical_A":"715 E College Ave, Decatur, GA 30030","Telephone":"(404) 377-6477","Website":"dearbornanimalhospital.com","x_longitud":-84.284071,"y_latitude":33.773653,"Resources":"Veterinarian"}}
,{"type":"Feature","geometry":{"type":"Point","coordinates":[-84.33949048,33.83489742]},"properties":{"Name":"Lawrence Animal Hospital","Physical_A":"2962 Buford Hwy NE, Atlanta, GA 30329","Telephone":"(404) 636-9444","Website":"www.lahatlanta.com/?","x_longitud":-84.33949,"y_latitude":33.834897,"Resources":"Veterinarian"}}
,{"type":"Feature","geometry":{"type":"Point","coordinates":[-84.29525207,33.81246035]},"properties":{"Name":"Whiteway Animal Hospital\r\n","Physical_A":"3342 N Druid Hills Rd, Decatur, GA 30033","Telephone":"(404) 636-6604","Website":"whitewayanimalhospital.vetsourcecms.com","x_longitud":-84.295252,"y_latitude":33.81246,"Resources":"Veterinarian"}}
,{"type":"Feature","geometry":{"type":"Point","coordinates":[-84.20344858,33.68655193]},"properties":{"Name":"Snapfinger Creek Animal Clinic\r\n","Physical_A":"5548 Flat Shoals Pkwy, Decatur, GA 30034","Telephone":"(770) 981-2361","Website":"napfingercreekanimalhospital.com","x_longitud":-84.203449,"y_latitude":33.686552,"Resources":"Veterinarian"}}
,{"type":"Feature","geometry":{"type":"Point","coordinates":[-84.25615024,33.73829548]},"properties":{"Name":"Columbia Belvedere Animal Hospital\r\n","Physical_A":"3956 Glenwood Rd, Decatur, GA 30032","Telephone":"(404) 289-5231","Website":"www.columbiabelvedereanimalhospital.com","x_longitud":-84.25615,"y_latitude":33.738295,"Resources":"Veterinarian"}}
,{"type":"Feature","geometry":{"type":"Point","coordinates":[-84.10139848,33.76723959]},"properties":{"Name":"Deshon Animal Hospital\r\n","Physical_A":"884 S Deshon Rd, Lithonia, GA 30058 ?","Telephone":"(770) 482-7816","Website":"www.deshonanimal.com","x_longitud":-84.101398,"y_latitude":33.76724,"Resources":"Veterinarian"}}
,{"type":"Feature","geometry":{"type":"Point","coordinates":[-84.21632098,33.71530884]},"properties":{"Name":"Coral Sands Animal Hospital\r\n","Physical_A":"4242 Snapfinger Woods Dr, Decatur, GA 30035","Telephone":"(404) 289-3178","Website":"coralsandsvet.com/?","x_longitud":-84.216321,"y_latitude":33.715309,"Resources":"Veterinarian"}}
,{"type":"Feature","geometry":{"type":"Point","coordinates":[-84.19849292,33.78653104]},"properties":{"Name":"Atlanta Pet Care Center\r\n","Physical_A":"4821 Rockbridge Rd #1, Stone Mountain, GA 30083","Telephone":"(404) 299-5551","Website":"atlantapetcarecenter.com/?","x_longitud":-84.198493,"y_latitude":33.786531,"Resources":"Veterinarian"}}
,{"type":"Feature","geometry":{"type":"Point","coordinates":[-84.21618032,33.73622646]},"properties":{"Name":"Wesley Chapel Animal Hospital\r\n","Physical_A":"4832 Covington Hwy, Decatur, GA 30035","Telephone":"(404) 289-0900","Website":"www.wcanimalhospital.com","x_longitud":-84.21618,"y_latitude":33.736226,"Resources":"Veterinarian"}}
,{"type":"Feature","geometry":{"type":"Point","coordinates":[-84.27211556,33.94067502]},"properties":{"Name":"Winters Chapel Animal Hospital\r\n","Physical_A":"3017 Peeler Rd, Atlanta, GA 30360","Telephone":"(770) 394-0030","Website":"www.winterschapelanimalhospital.com/","x_longitud":-84.272116,"y_latitude":33.940675,"Resources":"Veterinarian"}}
,{"type":"Feature","geometry":{"type":"Point","coordinates":[-84.33283293,33.94969974]},"properties":{"Name":"Ann Mayberry DVM\r\n","Physical_A":"1410 Dunwoody Village Pkwy, Atlanta, GA 30338","Telephone":"(770) 393-8936","Website":"http://www.vetscenewb.net/ClinicWebSite/VetWebMainForm_3.aspx?Menu_ID=3559","x_longitud":-84.332833,"y_latitude":33.9497,"Resources":"Veterinarian"}}
,{"type":"Feature","geometry":{"type":"Point","coordinates":[-84.30989757,33.8138917]},"properties":{"Name":"Vet Wellcare Vaccinations Clinic at Pet Supermarket\r\n","Physical_A":"2959 N Druid Hills Rd, Atlanta, GA 30329","Telephone":"","Website":"www.pawsplus.com/services-and-clinics/pet-supermarket","x_longitud":-84.309898,"y_latitude":33.813892,"Resources":"Veterinarian"}}
,{"type":"Feature","geometry":{"type":"Point","coordinates":[-84.29622881,33.77142116]},"properties":{"Name":"Animal Emergency Center of Decatur\r\n","Physical_A":"217 N McDonough St, Decatur, GA 30030","Telephone":"(404) 371-9774","Website":"decaturanimaler.com/?","x_longitud":-84.296229,"y_latitude":33.771421,"Resources":"Veterinarian"}}
,{"type":"Feature","geometry":{"type":"Point","coordinates":[-84.29468035,33.77885004]},"properties":{"Name":"Church Street Animal Hospital\r\n","Physical_A":"711 Church St, Decatur, GA 30030","Telephone":"(404) 687-0711","Website":"churchstanimalhospital.com/?","x_longitud":-84.29468,"y_latitude":33.77885,"Resources":"Veterinarian"}}
,{"type":"Feature","geometry":{"type":"Point","coordinates":[-84.32197686,33.75122872]},"properties":{"Name":"Atlanta Animal Ambulance\r\n","Physical_A":"2006A Hosea L Williams Dr NE, Atlanta, GA 30317","Telephone":"(678) 439-5911","Website":"www.atlantaanimalambulance.com/?","x_longitud":-84.321977,"y_latitude":33.751229,"Resources":"Veterinarian"}}
,{"type":"Feature","geometry":{"type":"Point","coordinates":[-84.32209117,33.75131056]},"properties":{"Name":"Vet Vaccinations Clinic at Kirkwood Feed & Seed","Physical_A":"1998 Hosea L Williams Dr NE, Atlanta, GA 30317","Telephone":"(404) 378-2829","Website":"www.kirkwoodfeedandseed.com","x_longitud":-84.322091,"y_latitude":33.751311,"Resources":"Veterinarian"}}
,{"type":"Feature","geometry":{"type":"Point","coordinates":[-84.29250601,33.77214581]},"properties":{"Name":"Animal Emergency Clinic Dectur","Physical_A":"308 E Howard Ave, Decatur, GA 30030","Telephone":"(404) 371-9774","Website":"decaturanimaler.com/?","x_longitud":-84.292506,"y_latitude":33.772146,"Resources":"Veterinarian"}}
,{"type":"Feature","geometry":{"type":"Point","coordinates":[-84.29205475,33.82510354]},"properties":{"Name":"Lavista Animal Hospital","Physical_A":"2804 Lavista Rd, Decatur, GA 30033","Telephone":"(404) 325-9924","Website":"www.lavistaanimalhospital.com/","x_longitud":-84.292055,"y_latitude":33.825104,"Resources":"Veterinarian"}}
,{"type":"Feature","geometry":{"type":"Point","coordinates":[-84.34778465,33.82639163]},"properties":{"Name":"Cheshire Animal Clinic & Pet: Visco Beth DVM","Physical_A":"2647 Buford Hwy NE, Atlanta, GA 30324","Telephone":"(404) 320-6555","Website":"www.cheshireanimal.com/","x_longitud":-84.347785,"y_latitude":33.826392,"Resources":"Veterinarian"}}
,{"type":"Feature","geometry":{"type":"Point","coordinates":[-84.2798819,33.81184356]},"properties":{"Name":"For PetÕs Sake","Physical_A":"3761 N Druid Hills Rd, Decatur, GA 30033","Telephone":"(404) 248-8977","Website":"forpetssake.com","x_longitud":-84.279882,"y_latitude":33.811844,"Resources":"Veterinarian"}}
,{"type":"Feature","geometry":{"type":"Point","coordinates":[-84.27310081,33.77546301]},"properties":{"Name":"Avondale Veterinary Hospital","Physical_A":"6 N Avondale Rd, Avondale Estates, GA 30002","Telephone":"","Website":"avondalevet.net","x_longitud":-84.273101,"y_latitude":33.775463,"Resources":"Veterinarian"}}
,{"type":"Feature","geometry":{"type":"Point","coordinates":[-84.2907156,33.79394783]},"properties":{"Name":"Vet Wellcare Vaccinations Clinic at Pet Supermarket","Physical_A":"2508 N Decatur Rd, Decatur, GA 30033","Telephone":"(404) 634-3808","Website":"https://www.vetwellcare.com","x_longitud":-84.290716,"y_latitude":33.793948,"Resources":"Veterinarian"}}
,{"type":"Feature","geometry":{"type":"Point","coordinates":[-84.24216501,33.81254679]},"properties":{"Name":"Northlake Veterinary Surgery","Physical_A":"935 Montreal Rd, Clarkston, GA 30021","Telephone":"(404) 292-3281","Website":"www.nvsatlanta.com","x_longitud":-84.242165,"y_latitude":33.812547,"Resources":"Veterinarian"}}
,{"type":"Feature","geometry":{"type":"Point","coordinates":[-84.20641874,33.78598067]},"properties":{"Name":"Midway Animal Hospital","Physical_A":"4577 Rockbridge Rd, Stone Mountain, GA 30083","Telephone":"","Website":"www.midwayanimalhosp.com","x_longitud":-84.206419,"y_latitude":33.785981,"Resources":"Veterinarian"}}
,{"type":"Feature","geometry":{"type":"Point","coordinates":[-84.19137286,33.80255568]},"properties":{"Name":"Stone Mountain Animal Hospital","Physical_A":"6053 Memorial Dr, Stone Mountain, GA 30083","Telephone":"(770) 469-6111","Website":"www.stonemountainvet.com/?","x_longitud":-84.191373,"y_latitude":33.802556,"Resources":"Veterinarian"}}
,{"type":"Feature","geometry":{"type":"Point","coordinates":[-84.17016858,33.80444642]},"properties":{"Name":"Mainstreet Veterinarians of Stone Mountain","Physical_A":"868 Main St, Stone Mountain, GA 30083","Telephone":"(770) 498-4620","Website":"mainstvets.com","x_longitud":-84.170169,"y_latitude":33.804446,"Resources":"Veterinarian"}}
,{"type":"Feature","geometry":{"type":"Point","coordinates":[-84.33599641,33.87003624]},"properties":{"Name":"Brookhaven Animal Hospital","Physical_A":"205 Town Blvd #210a, Atlanta, GA 30312","Telephone":"(404) 237-0316","Website":"www.brookhavenanimalhospital.com/?","x_longitud":-84.335996,"y_latitude":33.870036,"Resources":"Veterinarian"}}
,{"type":"Feature","geometry":{"type":"Point","coordinates":[-84.30220493,33.89080329]},"properties":{"Name":"WellPet Humane","Physical_A":"5342 Peachtree Rd, Chamblee, GA 30341","Telephone":"(770) 455-1011","Website":"wellpethumane.com/?","x_longitud":-84.302205,"y_latitude":33.890803,"Resources":"Veterinarian"}}
,{"type":"Feature","geometry":{"type":"Point","coordinates":[-84.33305206,33.8260269]},"properties":{"Name":"ProtectMyPet Vaccinations Clinic at The Pet Set","Physical_A":"2480 Briarcliff Rd NE, Atlanta, GA 30329","Telephone":"(404) 633-8755","Website":"","x_longitud":-84.333052,"y_latitude":33.826027,"Resources":"Veterinarian"}}
,{"type":"Feature","geometry":{"type":"Point","coordinates":[-84.25557285,33.84279338]},"properties":{"Name":"The People's Pets","Physical_A":"2015 Montreal Rd, Tucker, GA 30084","Telephone":"(770) 493-1001","Website":"thepeoplespets.com/?","x_longitud":-84.255573,"y_latitude":33.842793,"Resources":"Veterinarian"}}
,{"type":"Feature","geometry":{"type":"Point","coordinates":[-84.2155554,33.85069172]},"properties":{"Name":"Dekalb Animal Hospital","Physical_A":"4070 Lawrenceville Hwy, Tucker, GA 30084","Telephone":"(404) 490-4090","Website":"www.dekalbanimalhospital.com/?","x_longitud":-84.215555,"y_latitude":33.850692,"Resources":"Veterinarian"}}
,{"type":"Feature","geometry":{"type":"Point","coordinates":[-84.18831068,33.86596083]},"properties":{"Name":"VCA Dekalb-Gwinnett Animal Emergency Hospital","Physical_A":"6430 Lawrenceville Hwy, Tucker, GA 30084","Telephone":"(770) 491-0661","Website":"www.vcaspecialtyvets.com/dekalb-gwinnet","x_longitud":-84.188311,"y_latitude":33.865961,"Resources":"Veterinarian"}}
,{"type":"Feature","geometry":{"type":"Point","coordinates":[-84.25464213,33.88694814]},"properties":{"Name":"North Hills Animal Hospital","Physical_A":"3362 Chamblee Tucker Rd, Chamblee, GA 30341","Telephone":"(770) 451-6740","Website":"www.northhillsatlantavet.com","x_longitud":-84.254642,"y_latitude":33.886948,"Resources":"Veterinarian"}}
,{"type":"Feature","geometry":{"type":"Point","coordinates":[-84.30946555,33.8918048]},"properties":{"Name":"Chamblee Animal Hospital","Physical_A":"5220 Peachtree Industrial Blvd, Chamblee, GA 30341","Telephone":"(770) 457-5245","Website":"www.chambleeanimalhospital.com/","x_longitud":-84.309466,"y_latitude":33.891805,"Resources":"Veterinarian"}}
,{"type":"Feature","geometry":{"type":"Point","coordinates":[-84.18296507,33.82494537]},"properties":{"Name":"Du Pont Animal Health Solutions","Physical_A":"1481 Rock Mountain Blvd, Stone Mountain, GA 30083","Telephone":"(770) 723-9211","Website":"","x_longitud":-84.182965,"y_latitude":33.824945,"Resources":"Veterinarian"}}
,{"type":"Feature","geometry":{"type":"Point","coordinates":[-84.33503756,33.94647584]},"properties":{"Name":"Dunwoody Animal Hospital","Physical_A":"5450 Chamblee Dunwoody Rd, Dunwoody, GA 30338","Telephone":"(770) 394-4030","Website":"www.dunwoodyanimal.com/?","x_longitud":-84.335038,"y_latitude":33.946476,"Resources":"Veterinarian"}}
,{"type":"Feature","geometry":{"type":"Point","coordinates":[-84.30203432,33.95889785]},"properties":{"Name":"All Creatures Animal Hospital","Physical_A":"2482 Mt Vernon Rd, Dunwoody, GA 30338","Telephone":"(770) 393-3400","Website":"www.allcreaturesanimalhospital.com/?","x_longitud":-84.302034,"y_latitude":33.958898,"Resources":"Veterinarian"}}
,{"type":"Feature","geometry":{"type":"Point","coordinates":[-84.30358386,33.95821173]},"properties":{"Name":"Dunwoody Animal Medical Center","Physical_A":"2458 Jett Ferry Rd, Dunwoody, GA 30338","Telephone":"(770) 698-9227","Website":"www.dunwoodyamc.com/?","x_longitud":-84.303584,"y_latitude":33.958212,"Resources":"Veterinarian"}}
,{"type":"Feature","geometry":{"type":"Point","coordinates":[-84.27711962,33.79558737]},"properties":{"Name":"Saint Francis Veterinary Specialists","Physical_A":"625 Dekalb Industrial Way #500, Decatur, GA 30033","Telephone":"(404) 924-2000","Website":"www.sfvs.com/","x_longitud":-84.27712,"y_latitude":33.795587,"Resources":"Veterinarian"}}
,{"type":"Feature","geometry":{"type":"Point","coordinates":[-84.34572858,33.92807949]},"properties":{"Name":"Banfield Pet Hospital","Physical_A":"128 Perimeter Center W, Atlanta, GA 30346","Telephone":"(770) 393-2293","Website":"","x_longitud":-84.345729,"y_latitude":33.928079,"Resources":"Veterinarian"}}
,{"type":"Feature","geometry":{"type":"Point","coordinates":[-84.30086373,33.92502051]},"properties":{"Name":"Atlanta Veterinary Imaging","Physical_A":"4402 Chowning Way, Atlanta, GA 30338","Telephone":"(770) 559-4789","Website":"","x_longitud":-84.300864,"y_latitude":33.925021,"Resources":"Veterinarian"}}
,{"type":"Feature","geometry":{"type":"Point","coordinates":[-84.1182584,33.70901745]},"properties":{"Name":"Evans Mill Animal Hospital","Physical_A":"7431 Covington Hwy, Lithonia, GA 30058","Telephone":"(770) 482-5100","Website":"www.evansmillanimalhospital.com/staff.html?","x_longitud":-84.118258,"y_latitude":33.709017,"Resources":"Veterinarian"}}
,{"type":"Feature","geometry":{"type":"Point","coordinates":[-84.09109103,33.7323397]},"properties":{"Name":"Lithonia Animal Hospital","Physical_A":"2015 Rock Chapel Rd, Lithonia, GA 30058","Telephone":"(770) 482-2966","Website":"lithoniaanimalhospital.com","x_longitud":-84.091091,"y_latitude":33.73234,"Resources":"Veterinarian"}}
,{"type":"Feature","geometry":{"type":"Point","coordinates":[-84.21713117,33.85497828]},"properties":{"Name":"Tucker Animal Hospital: Tucker Kathleen DVM","Physical_A":"4988 Lavista Rd, Tucker, GA 30084","Telephone":"(770) 934-5411","Website":"tuckeranimalhospital.com","x_longitud":-84.217131,"y_latitude":33.854978,"Resources":"Veterinarian"}}
,{"type":"Feature","geometry":{"type":"Point","coordinates":[-84.29635881,33.77136656]},"properties":{"Name":"The Village Vets","Physical_A":"217 N McDonough St, Decatur, GA 30030","Telephone":"(404) 371-0111","Website":"www.thevillagevets.com","x_longitud":-84.296359,"y_latitude":33.771367,"Resources":"Veterinarian"}}
,{"type":"Feature","geometry":{"type":"Point","coordinates":[-84.33414789,33.94691915]},"properties":{"Name":"Dunwoody Veterinary Center","Physical_A":"1610 Mt Vernon Rd, Atlanta, GA 30338","Telephone":"(770) 394-5004","Website":"dunwoodyvet.com","x_longitud":-84.334148,"y_latitude":33.946919,"Resources":"Veterinarian"}}
,{"type":"Feature","geometry":{"type":"Point","coordinates":[-84.26641221,33.77588282]},"properties":{"Name":"Atlanta Veterinary Eye Clinic","Physical_A":"33 N Avondale Plz, Avondale Estates, GA 30002","Telephone":"(404) 299-0678","Website":"www.atlantaveteyeclinic.com/","x_longitud":-84.266412,"y_latitude":33.775883,"Resources":"Veterinarian"}}
,{"type":"Feature","geometry":{"type":"Point","coordinates":[-84.25361425,33.84622049]},"properties":{"Name":"Banfield Pet Hospital","Physical_A":"4023 Lavista Rd #233, Tucker, GA 30084","Telephone":"(770) 414-4330","Website":"","x_longitud":-84.253614,"y_latitude":33.84622,"Resources":"Veterinarian"}}
,{"type":"Feature","geometry":{"type":"Point","coordinates":[-84.30151355,33.92499896]},"properties":{"Name":"Atlanta Vet Imaging and Diagnostics","Physical_A":"4402 Chowning Way, Atlanta, GA 30338","Telephone":"","Website":"","x_longitud":-84.301514,"y_latitude":33.924999,"Resources":"Veterinarian"}}
,{"type":"Feature","geometry":{"type":"Point","coordinates":[-84.31936254,33.88125801]},"properties":{"Name":"VCA Peachtree Animal Hospital","Physical_A":"4839 Peachtree Rd, Chamblee, GA 30341","Telephone":"(770) 457-2591","Website":"www.vcahospitals.com/peachtree","x_longitud":-84.319363,"y_latitude":33.881258,"Resources":"Veterinarian"}}
,{"type":"Feature","geometry":{"type":"Point","coordinates":[-84.23437839,33.84199225]},"properties":{"Name":"Park Haven Pet Adoptions","Physical_A":"3516 Lawrenceville Hwy, Tucker, GA 30084","Telephone":"","Website":"","x_longitud":-84.234378,"y_latitude":33.841992,"Resources":"Shelter"}}
,{"type":"Feature","geometry":{"type":"Point","coordinates":[-84.17352962,33.81127079]},"properties":{"Name":"Atlanta Animal Rescue Friends","Physical_A":"6570 James B Rivers Drive, Stone Mountain, GA 30083","Telephone":"","Website":"http://aarfatlanta.org","x_longitud":-84.17353,"y_latitude":33.811271,"Resources":"Shelter"}}
,{"type":"Feature","geometry":{"type":"Point","coordinates":[-84.2412717,33.77202502]},"properties":{"Name":"DeKalb County Animal Services","Physical_A":"845 Camp Rd, Decatur, GA 30032","Telephone":"Shelter: 404-294-2949 / Adoptions: (404) 294-2949","Website":"http://dekalbanimalservices.com","x_longitud":-84.241272,"y_latitude":33.772025,"Resources":"Shelter"}}
,{"type":"Feature","geometry":{"type":"Point","coordinates":[-84.26974269,33.7774489]},"properties":{"Name":"Lifeline Animal Project - Decatur","Physical_A":"129 Lake St, Avondale Estates, GA 30002, USA","Telephone":"(404) 292-8800","Website":"http://lifelineanimal.org","x_longitud":-84.269743,"y_latitude":33.777449,"Resources":"Shelter"}}
,{"type":"Feature","geometry":{"type":"Point","coordinates":[-84.3081519,33.83402013]},"properties":{"Name":"Ruffus Rescue","Physical_A":"1981 Audubon Dr, Atlanta, GA 30322","Telephone":"","Website":"http://www.petfinder.com/shelters/ruffusrescue.html","x_longitud":-84.308152,"y_latitude":33.83402,"Resources":"Shelter"}}
,{"type":"Feature","geometry":{"type":"Point","coordinates":[-84.27852335,33.90070093]},"properties":{"Name":"FurKids Animal Shelter","Physical_A":"3750 Park Ave, Doraville, GA 30340","Telephone":"770-613-0009","Website":"http://furkids.org","x_longitud":-84.278523,"y_latitude":33.900701,"Resources":"Shelter"}}
,{"type":"Feature","geometry":{"type":"Point","coordinates":[-84.19902634,33.73170424]},"properties":{"Name":"PAWS Atlanta","Physical_A":"5287 Covington Hwy, Decatur, GA 30035","Telephone":"(770) 593-1155","Website":"http://www.pawsatlanta.org/default.aspx","x_longitud":-84.199026,"y_latitude":33.731704,"Resources":"Shelter"}}
,{"type":"Feature","geometry":{"type":"Point","coordinates":[-84.32844432,33.81184243]},"properties":{"Name":"Perfect Pets Rescue","Physical_A":"1152 Biltmore Dr NE, Atlanta, GA 30329","Telephone":"845-205-2755 Ê","Website":"http://www.perfectpetsrescue.org","x_longitud":-84.328444,"y_latitude":33.811842,"Resources":"Shelter"}}
,{"type":"Feature","geometry":{"type":"Point","coordinates":[-84.33094864,33.7215905]},"properties":{"Name":"Atlanta Beagle Rescue","Physical_A":"1190 Bouldercrest Dr SE, Atlanta, GA 30316","Telephone":"","Website":"http://www.atlantabeaglerescue.org","x_longitud":-84.330949,"y_latitude":33.72159,"Resources":"Shelter"}}
,{"type":"Feature","geometry":{"type":"Point","coordinates":[-84.34785787,33.73164501]},"properties":{"Name":"Big Daddy Biscuits","Physical_A":"873 Brownwood Ave SE, Atlanta, GA 30316","Telephone":"(678) 860-3564","Website":"","x_longitud":-84.347858,"y_latitude":33.731645,"Resources":"Pet Store"}}
,{"type":"Feature","geometry":{"type":"Point","coordinates":[-84.32914917,33.82551063]},"properties":{"Name":"The Pet Set","Physical_A":"2480 Briarcliff Rd #3, Atlanta, GA 30329","Telephone":"(404) 633-8755","Website":"","x_longitud":-84.329149,"y_latitude":33.825511,"Resources":"Pet Store"}}
,{"type":"Feature","geometry":{"type":"Point","coordinates":[-84.32886148,33.76207816]},"properties":{"Name":"Petco","Physical_A":"1267 Caroline Street NE, Atlanta, GA","Telephone":"(404) 521-1762","Website":"petco.com","x_longitud":-84.328861,"y_latitude":33.762078,"Resources":"Pet Store"}}
,{"type":"Feature","geometry":{"type":"Point","coordinates":[-84.30138966,33.75627562]},"properties":{"Name":"Taj Mahound","Physical_A":"707 E Lake Dr, Decatur, GA 30030","Telephone":"(404) 377-9220","Website":"www.tajmahound.com/?","x_longitud":-84.30139,"y_latitude":33.756276,"Resources":"Pet Store"}}
,{"type":"Feature","geometry":{"type":"Point","coordinates":[-84.32868208,33.76183533]},"properties":{"Name":"Kirkwood Feed and Seed","Physical_A":"1998 Hosea Williams Dr, Atlanta, GA 30317","Telephone":"(404) 378-2829","Website":"kirkwoodfeedandseed.com","x_longitud":-84.328682,"y_latitude":33.761835,"Resources":"Pet Store"}}
,{"type":"Feature","geometry":{"type":"Point","coordinates":[-84.30496725,33.7150898]},"properties":{"Name":"Standard Feed and Seed Co.","Physical_A":"2339 Brannen Rd SE, Atlanta, GA 30316","Telephone":"(404) 241-6922","Website":"standardfeedandseedga.liveonatt.com/servicesprovided.nxg?","x_longitud":-84.304967,"y_latitude":33.71509,"Resources":"Pet Store"}}
,{"type":"Feature","geometry":{"type":"Point","coordinates":[-84.1916643,33.80362058]},"properties":{"Name":"Pet Supermarket","Physical_A":"6050 Memorial Dr, Stone Mountain, GA 30083","Telephone":"(770) 498-1017","Website":"petsupermarket.com","x_longitud":-84.191664,"y_latitude":33.803621,"Resources":"Pet Store"}}
,{"type":"Feature","geometry":{"type":"Point","coordinates":[-84.33456307,33.93306065]},"properties":{"Name":"Petland Dunwoody","Physical_A":"4733 Ashford Dunwoody Rd, Dunwoody, GA 30338","Telephone":"(770) 396-7358","Website":"petlanddunwoody.com","x_longitud":-84.334563,"y_latitude":33.933061,"Resources":"Pet Store"}}
,{"type":"Feature","geometry":{"type":"Point","coordinates":[-84.34289309,33.73992132]},"properties":{"Name":"Pet Park Supply Inc","Physical_A":"479 Flat Shoals Ave SE, Atlanta, GA 30316","Telephone":"(404) 588-0140","Website":"petparksupply.com","x_longitud":-84.342893,"y_latitude":33.739921,"Resources":"Pet Store"}}
,{"type":"Feature","geometry":{"type":"Point","coordinates":[-84.17394967,33.80976487]},"properties":{"Name":"AARF Pet Central","Physical_A":"6570 James B Rivers Drive, Stone Mountain, GA 30083","Telephone":"(678) 534-3483","Website":"aarfpetcentral.com","x_longitud":-84.17395,"y_latitude":33.809765,"Resources":"Pet Store"}}
,{"type":"Feature","geometry":{"type":"Point","coordinates":[-84.34571266,33.92719788]},"properties":{"Name":"Petsmart","Physical_A":"128 Perimeter Center W, Atlanta, GA 30346","Telephone":"(770) 481-0043","Website":"petsmart.com","x_longitud":-84.345713,"y_latitude":33.927198,"Resources":"Pet Store"}}
,{"type":"Feature","geometry":{"type":"Point","coordinates":[-84.09126958,33.69473865]},"properties":{"Name":"Petco","Physical_A":"8164 Mall Parkway, Lithonia, GA","Telephone":"(770) 482-1565","Website":"petco.com","x_longitud":-84.09127,"y_latitude":33.694739,"Resources":"Pet Store"}}
,{"type":"Feature","geometry":{"type":"Point","coordinates":[-84.19569465,33.76000501]},"properties":{"Name":"Pet Shop (ATLC Pets)","Physical_A":"1230 S Hairston Rd, Stone Mountain, GA 30088","Telephone":"(404) 284-7372","Website":"atlcpets.com","x_longitud":-84.195695,"y_latitude":33.760005,"Resources":"Pet Store"}}
,{"type":"Feature","geometry":{"type":"Point","coordinates":[-84.33423645,33.76324964]},"properties":{"Name":"Many Paws Pet City","Physical_A":"325 Glendale Ave NE, Atlanta, GA 30307","Telephone":"(404) 378-6935","Website":"","x_longitud":-84.334236,"y_latitude":33.76325,"Resources":"Pet Store"}}
,{"type":"Feature","geometry":{"type":"Point","coordinates":[-84.2151247,33.8547942]},"properties":{"Name":"Tucker Pet Supply","Physical_A":"2383 Main Street, Tucker, GA","Telephone":"(770) 491-3727","Website":"tuckerpetsupply.com","x_longitud":-84.215125,"y_latitude":33.854794,"Resources":"Pet Store"}}
,{"type":"Feature","geometry":{"type":"Point","coordinates":[-84.26327623,33.75743473]},"properties":{"Name":"Tender Loving Caring Pets Corporation","Physical_A":"3653 Memorial Dr, Decatur, GA 30032","Telephone":"(404) 284-7372","Website":"tlcpetsservices.com","x_longitud":-84.263276,"y_latitude":33.757435,"Resources":"Pet Store"}}
,{"type":"Feature","geometry":{"type":"Point","coordinates":[-84.26409055,33.778918]},"properties":{"Name":"Dogfeathers","Physical_A":"189 N Clarendon Ave, Avondale Estates, GA 30002","Telephone":"(404) 499-1006","Website":"dogfeathersatl.com","x_longitud":-84.264091,"y_latitude":33.778918,"Resources":"Pet Store"}}
,{"type":"Feature","geometry":{"type":"Point","coordinates":[-84.27387056,33.78252458]},"properties":{"Name":"WAG-A-LOT Decatur\r\n","Physical_A":"225 Dekalb Industrial Way, Decatur, GA 30030","Telephone":"(404) 292-3377","Website":"wagalot.com","x_longitud":-84.273871,"y_latitude":33.782525,"Resources":"Pet Store"}}
,{"type":"Feature","geometry":{"type":"Point","coordinates":[-84.29072492,33.79396707]},"properties":{"Name":"Pet Supermarket","Physical_A":"","Telephone":"","Website":"","x_longitud":-84.290725,"y_latitude":33.793967,"Resources":"Pet Store"}}
,{"type":"Feature","geometry":{"type":"Point","coordinates":[-84.30648573,33.76686919]},"properties":{"Name":"CorrinaÕs Corner","Physical_A":"722 W College Ave, Decatur, GA 30030 ?","Telephone":"(404) 687-8001","Website":"www.corrinascorner.com/","x_longitud":-84.306486,"y_latitude":33.766869,"Resources":"Pet Store"}}
,{"type":"Feature","geometry":{"type":"Point","coordinates":[-84.31767057,33.86426994]},"properties":{"Name":"Citydog Market","Physical_A":"4244 Peachtree Rd NE, Atlanta, GA 30319","Telephone":"(404) 816-8050","Website":"citydogmarket.com","x_longitud":-84.317671,"y_latitude":33.86427,"Resources":"Pet Store"}}
,{"type":"Feature","geometry":{"type":"Point","coordinates":[-84.25498403,33.84490362]},"properties":{"Name":"Petsmart","Physical_A":"4023 Lavista Rd, Tucker, GA 30084 ?","Telephone":"(770) 414-5126","Website":"www.petsmart.com","x_longitud":-84.254984,"y_latitude":33.844904,"Resources":"Pet Store"}}
]}
